{
  "person_id": 406,
  "works": [
    {"name":"Pub, 36 Market Street","city":"Nottingham","address":"36 Market Street","year_start":1895,"notes":"With Robert Evans Sr","lat":52.9533,"lng":-1.1499,"location_uncertain":false},
    {"name":"Bank, Victoria Street","city":"Nottingham","address":"Victoria Street","year_start":1895,"year_end":1897,"notes":"With Robert Evans Sr","wikipedia_url":"https://en.wikipedia.org/wiki/Victoria_Street,_Nottingham","lat":52.9532,"lng":-1.1474,"location_uncertain":false},
    {"name":"St Michael's Church, Breaston — restoration and new vestry","city":"Breaston, Derbyshire","year_start":1895,"year_end":1899,"notes":"With Robert Evans Sr","wikipedia_url":"https://en.wikipedia.org/wiki/St_Michael%27s_Church,_Breaston","lat":52.8983,"lng":-1.3316,"location_uncertain":false},
    {"name":"Nottingham Board School, Collygate Road","city":"Nottingham","address":"Collygate Road","year_start":1898,"year_end":1899,"notes":"With Robert Evans Sr","lat":52.9550,"lng":-1.1600,"location_uncertain":true},
    {"name":"Cross Keys public house, Fletcher Gate","city":"Nottingham","address":"Fletcher Gate","year_start":1899,"notes":"With Robert Evans Sr","lat":52.9511,"lng":-1.1452,"location_uncertain":false},
    {"name":"Lenton Firs, University of Nottingham — remodelling","city":"Nottingham","address":"University Park","year_start":1903,"notes":"With Robert Evans Sr","lat":52.9381,"lng":-1.1997,"location_uncertain":false},
    {"name":"Imperial public house, St James' Street","city":"Nottingham","address":"St James' Street","year_start":1903,"notes":"With Robert Evans Sr","lat":52.9528,"lng":-1.1524,"location_uncertain":false},
    {"name":"Fox and Grapes public house, Sneinton Market","city":"Nottingham","address":"Sneinton Market","year_start":1905,"year_end":1906,"notes":"With Robert Evans Sr (now Peggers)","lat":52.9497,"lng":-1.1390,"location_uncertain":false},
    {"name":"46 St Mary's Gate","city":"Nottingham","address":"46 St Mary's Gate","year_start":1907,"notes":"With Robert Evans Sr","wikipedia_url":"https://en.wikipedia.org/wiki/St_Mary%27s_Gate,_Nottingham","lat":52.9516,"lng":-1.1440,"location_uncertain":false},
    {"name":"Catholic Church & presbytery, Melbourne","city":"Melbourne, Derbyshire","year_start":1907,"year_end":1909,"notes":"With Robert Evans Sr","lat":52.8250,"lng":-1.4333,"location_uncertain":false},
    {"name":"Fairholme, Lenton Road — extensions","city":"Nottingham","address":"Lenton Road","year_start":1910,"notes":"With Robert Evans Sr","lat":52.9430,"lng":-1.1750,"location_uncertain":true},
    {"name":"18 Carrington Street — offices for F Hillam","city":"Nottingham","address":"18 Carrington Street","year_start":1913,"wikipedia_url":"https://en.wikipedia.org/wiki/Carrington_Street,_Nottingham","lat":52.9493,"lng":-1.1494,"location_uncertain":false},
    {"name":"2 Carrington Street — Post Office Engineers offices and shop","city":"Nottingham","address":"2 Carrington Street","year_start":1913,"year_end":1914,"lat":52.9491,"lng":-1.1492,"location_uncertain":false},
    {"name":"St Peter's Church, Nottingham — restoration","city":"Nottingham","address":"St Peter's Gate","year_start":1914,"wikipedia_url":"https://en.wikipedia.org/wiki/St_Peter%27s_Church,_Nottingham","lat":52.9523,"lng":-1.1497,"location_uncertain":false},
    {"name":"Nurses' Home, General Hospital","city":"Nottingham","address":"Hucknall Road","year_start":1919,"year_end":1923,"lat":52.9542,"lng":-1.1564,"location_uncertain":false},
    {"name":"Commercial Union offices, High Street","city":"Nottingham","address":"High Street","year_start":1922,"lat":52.9526,"lng":-1.1502,"location_uncertain":false},
    {"name":"Ropewalk wing, General Hospital","city":"Nottingham","address":"Hucknall Road","year_start":1927,"lat":52.9543,"lng":-1.1562,"location_uncertain":false},
    {"name":"James Store, Carrington Street","city":"Nottingham","address":"Carrington Street","wikipedia_url":"https://en.wikipedia.org/wiki/Carrington_Street,_Nottingham","lat":52.9492,"lng":-1.1493,"location_uncertain":true},
    {"name":"Collin's (Firs) Maternity Hospital, Sherwood","city":"Sherwood, Nottingham","year_start":1926,"year_end":1927,"lat":52.9824,"lng":-1.1498,"location_uncertain":true},
    {"name":"Thomas Forman and Sons' factory, Hucknall","city":"Hucknall, Nottinghamshire","lat":53.0380,"lng":-1.2000,"location_uncertain":true},
    {"name":"Ravine House, 21 Lenton Road — lease and occupation","city":"Nottingham","address":"21 Lenton Road","year_start":1901,"notes":"His residence; lease assigned from father 1905","lat":52.9445,"lng":-1.1728,"location_uncertain":false}
  ]
}
