{
  "person_id": 405,
  "works": [
    {"name":"Nottinghamshire Club, Victoria Street","city":"Nottingham","address":"Victoria Street","year_start":1868,"lat":52.9533,"lng":-1.1473,"location_uncertain":false},
    {"name":"St Andrew's Church, Goldsmith Street","city":"Nottingham","address":"Goldsmith Street","year_start":1869,"year_end":1870,"wikipedia_url":"https://en.wikipedia.org/wiki/St._Andrew%27s_with_Castle_Gate_United_Reformed_Church","lat":52.9537,"lng":-1.1531,"location_uncertain":false},
    {"name":"Lewis and Grundy ironmongers shop, Victoria Street","city":"Nottingham","address":"Victoria Street","year_start":1870,"notes":"Extended 1873 with Jolley","lat":52.9533,"lng":-1.1475,"location_uncertain":false},
    {"name":"St Michael's Church, Breaston","city":"Breaston, Derbyshire","year_start":1871,"notes":"Restoration","wikipedia_url":"https://en.wikipedia.org/wiki/St_Michael%27s_Church,_Breaston","lat":52.8983,"lng":-1.3316,"location_uncertain":false},
    {"name":"Imperial Fire and Life Insurance Office, 16–18 Victoria Street","city":"Nottingham","address":"16-18 Victoria Street","year_start":1872,"lat":52.9533,"lng":-1.1472,"location_uncertain":false},
    {"name":"Club, 12 Victoria Street","city":"Nottingham","address":"12 Victoria Street","year_start":1872,"notes":"With Jolley","lat":52.9532,"lng":-1.1471,"location_uncertain":false},
    {"name":"Birkin Brothers lace warehouse, 16 Stoney Street","city":"Nottingham","address":"16 Stoney Street","year_start":1872,"notes":"With Jolley; additions 1881","wikipedia_url":"https://en.wikipedia.org/wiki/Stoney_Street,_Nottingham","lat":52.9518,"lng":-1.1446,"location_uncertain":false},
    {"name":"St Mary's Schools, Bath Street","city":"Nottingham","address":"Bath Street","year_start":1872,"year_end":1874,"notes":"With Jolley","lat":52.9521,"lng":-1.1440,"location_uncertain":true},
    {"name":"Holy Trinity Church, Kirk Ireton","city":"Kirk Ireton, Derbyshire","year_start":1873,"notes":"Restoration with Jolley","wikipedia_url":"https://en.wikipedia.org/wiki/Holy_Trinity_Church,_Kirk_Ireton","lat":53.0500,"lng":-1.5667,"location_uncertain":false},
    {"name":"St Andrew's Church, Stanley, Derbyshire","city":"Stanley, Derbyshire","year_start":1874,"notes":"Rebuild","lat":52.9450,"lng":-1.3583,"location_uncertain":true},
    {"name":"St Peter's Church — chancel and north transept renewal","city":"Nottingham","address":"St Peter's Gate","year_start":1875,"notes":"With Jolley","wikipedia_url":"https://en.wikipedia.org/wiki/St_Peter%27s_Church,_Nottingham","lat":52.9523,"lng":-1.1497,"location_uncertain":false},
    {"name":"St John the Baptist Church, Beeston — organ chamber","city":"Beeston, Nottinghamshire","year_start":1876,"notes":"With Jolley","wikipedia_url":"https://en.wikipedia.org/wiki/St_John_the_Baptist_Church,_Beeston","lat":52.9352,"lng":-1.2106,"location_uncertain":false},
    {"name":"St Mary the Virgin's Church, Weston-on-Trent","city":"Weston-on-Trent, Derbyshire","year_start":1876,"year_end":1877,"notes":"Restoration with Jolley","wikipedia_url":"https://en.wikipedia.org/wiki/St_Mary_the_Virgin%27s_Church,_Weston-on-Trent","lat":52.8479,"lng":-1.5556,"location_uncertain":false},
    {"name":"St Augustine's Church, Basford","city":"Basford, Nottingham","year_start":1877,"notes":"With Jolley; north aisle 1884, chancel 1895","lat":52.9718,"lng":-1.1665,"location_uncertain":false},
    {"name":"St Jude's Church, Mapperley","city":"Mapperley, Nottingham","year_start":1877,"notes":"With Jolley","wikipedia_url":"https://en.wikipedia.org/wiki/St_Jude%27s_Church,_Mapperley","lat":52.9741,"lng":-1.1267,"location_uncertain":false},
    {"name":"Mackworth Vicarage","city":"Mackworth, Derbyshire","year_start":1877,"lat":52.9267,"lng":-1.5417,"location_uncertain":true},
    {"name":"All Saints' Church, Cotgrave","city":"Cotgrave, Nottinghamshire","year_start":1877,"year_end":1878,"notes":"Restoration with Jolley","wikipedia_url":"https://en.wikipedia.org/wiki/All_Saints%27_Church,_Cotgrave","lat":52.8910,"lng":-1.0420,"location_uncertain":false},
    {"name":"Warehouse, Stanford Street","city":"Nottingham","address":"Stanford Street","year_start":1878,"year_end":1879,"lat":52.9500,"lng":-1.1450,"location_uncertain":true},
    {"name":"St Peter's Church, Stapenhill","city":"Stapenhill, Derbyshire","year_start":1880,"lat":52.8167,"lng":-1.6083,"location_uncertain":true},
    {"name":"People's College, College Street","city":"Nottingham","address":"College Street","year_start":1881,"notes":"With Jolley; additions 1891–92 and 1897","lat":52.9522,"lng":-1.1512,"location_uncertain":false},
    {"name":"Paton House, University of Nottingham","city":"Nottingham","address":"University Park","year_start":1881,"notes":"With Jolley","lat":52.9393,"lng":-1.1975,"location_uncertain":false},
    {"name":"Miss Cullen's Almshouses","city":"Nottingham","year_start":1882,"year_end":1883,"notes":"With Jolley","wikipedia_url":"https://en.wikipedia.org/wiki/Miss_Cullen%27s_Almshouses","lat":52.9560,"lng":-1.1560,"location_uncertain":true},
    {"name":"Hart, Fellow's and Company Bank, Bridlesmith Gate","city":"Nottingham","address":"Bridlesmith Gate","year_start":1884,"notes":"With Jolley","wikipedia_url":"https://en.wikipedia.org/wiki/Hart,_Fellow%27s_and_Company","lat":52.9521,"lng":-1.1487,"location_uncertain":false},
    {"name":"Priory Church of St Anthony, Lenton — restoration","city":"Lenton, Nottingham","year_start":1884,"notes":"With Jolley","wikipedia_url":"https://en.wikipedia.org/wiki/Priory_Church_of_St_Anthony,_Lenton","lat":52.9466,"lng":-1.1792,"location_uncertain":false},
    {"name":"25–29 Wheeler Gate","city":"Nottingham","address":"Wheeler Gate","year_start":1885,"lat":52.9527,"lng":-1.1497,"location_uncertain":false},
    {"name":"Nottingham High School — chemistry laboratory and lecture theatre","city":"Nottingham","address":"Waverley Street","year_start":1886,"wikipedia_url":"https://en.wikipedia.org/wiki/Nottingham_High_School","lat":52.9572,"lng":-1.1503,"location_uncertain":false},
    {"name":"Shop, 1–3 South Parade and Wheeler Gate","city":"Nottingham","address":"South Parade","year_start":1888,"notes":"With Jolley","lat":52.9527,"lng":-1.1503,"location_uncertain":false},
    {"name":"Lenton Firs, University of Nottingham","city":"Nottingham","address":"University Park","year_start":1888,"notes":"With Jolley; remodelled 1903 with Robert Evans Jr","lat":52.9381,"lng":-1.1997,"location_uncertain":false},
    {"name":"House and shop, South Parade","city":"Nottingham","address":"South Parade","year_start":1889,"notes":"With Jolley","lat":52.9528,"lng":-1.1508,"location_uncertain":false},
    {"name":"Warehouse, 11 Warser Gate","city":"Nottingham","address":"11 Warser Gate","year_start":1890,"notes":"With Jolley","lat":52.9514,"lng":-1.1449,"location_uncertain":false},
    {"name":"Nottingham Hospital for Women, Castle Gate","city":"Nottingham","address":"Castle Gate","year_start":1890,"notes":"With Jolley; new central entrance","lat":52.9539,"lng":-1.1553,"location_uncertain":false},
    {"name":"St Wilfrid's Church, Egginton","city":"Egginton, Derbyshire","year_start":1891,"year_end":1892,"notes":"Restoration","wikipedia_url":"https://en.wikipedia.org/wiki/St_Wilfrid%27s_Church,_Egginton","lat":52.8516,"lng":-1.6148,"location_uncertain":false},
    {"name":"17–21 Houndsgate — warehousing for James Snook & Co","city":"Nottingham","address":"17-21 Houndsgate","year_start":1894,"year_end":1895,"notes":"With Jolley; drapers and haberdashers","wikipedia_url":"https://en.wikipedia.org/wiki/Houndsgate","lat":52.9526,"lng":-1.1487,"location_uncertain":false},
    {"name":"Pub, 36 Market Street","city":"Nottingham","address":"36 Market Street","year_start":1895,"notes":"With Robert Evans Junior","lat":52.9533,"lng":-1.1499,"location_uncertain":false},
    {"name":"Bank, Victoria Street","city":"Nottingham","address":"Victoria Street","year_start":1895,"year_end":1897,"notes":"With Robert Evans Junior","lat":52.9532,"lng":-1.1474,"location_uncertain":false},
    {"name":"Nottingham Board School, Collygate Road","city":"Nottingham","address":"Collygate Road","year_start":1898,"year_end":1899,"notes":"With Robert Evans Junior","lat":52.9550,"lng":-1.1600,"location_uncertain":true},
    {"name":"Cross Keys public house, Fletcher Gate","city":"Nottingham","address":"Fletcher Gate","year_start":1899,"notes":"With Robert Evans Junior","lat":52.9511,"lng":-1.1452,"location_uncertain":false},
    {"name":"Imperial public house, St James' Street","city":"Nottingham","address":"St James' Street","year_start":1903,"notes":"With Robert Evans Junior","lat":52.9528,"lng":-1.1524,"location_uncertain":false},
    {"name":"Fox and Grapes public house, Sneinton Market","city":"Nottingham","address":"Sneinton Market","year_start":1905,"year_end":1906,"notes":"With Robert Evans Junior","lat":52.9497,"lng":-1.1390,"location_uncertain":false},
    {"name":"46 St Mary's Gate","city":"Nottingham","address":"46 St Mary's Gate","year_start":1907,"notes":"With Robert Evans Junior","wikipedia_url":"https://en.wikipedia.org/wiki/St_Mary%27s_Gate,_Nottingham","lat":52.9516,"lng":-1.1440,"location_uncertain":false},
    {"name":"Catholic Church & presbytery, Melbourne","city":"Melbourne, Derbyshire","year_start":1907,"year_end":1909,"lat":52.8250,"lng":-1.4333,"location_uncertain":false},
    {"name":"Fairholme, 13 Lenton Road","city":"Nottingham","address":"13 Lenton Road","year_start":1910,"notes":"With Robert Evans Junior; extensions","lat":52.9430,"lng":-1.1750,"location_uncertain":true},
    {"name":"Ravine House, 21 Lenton Road — design","city":"Nottingham","address":"21 Lenton Road","year_start":1862,"notes":"Hine & Evans — his own Park residence","lat":52.9445,"lng":-1.1728,"location_uncertain":false}
  ]
}
